city,latitude,longitude,temperature_c,humidity
Roorkee,29.867,77.894,32.1,60
Delhi,28.6139,77.2090,35.2,55
Mumbai,19.0760,72.8777,30.4,80
Chennai,13.0827,80.2707,33.0,75
Kolkata,22.5726,88.3639,31.7,78
